[
  {
    "id": "YUL",
    "name": "Montreal / Pierre Elliott Trudeau International Airport",
    "city": "Montreal",
    "passengers": 18160223,
    "coordinates": [
      -73.7407989502,
      45.4706001282
    ]
  },
  {
    "id": "YVR",
    "name": "Vancouver International Airport",
    "city": "Vancouver",
    "passengers": 24166122,
    "coordinates": [
      -123.183998108,
      49.193901062
    ]
  },
  {
    "id": "YYC",
    "name": "Calgary International Airport",
    "city": "Calgary",
    "passengers": 16275862,
    "coordinates": [
      -114.019996643,
      51.113899231
    ]
  },
  {
    "id": "YYZ",
    "name": "Lester B. Pearson International Airport",
    "city": "Toronto",
    "passengers": 47054696,
    "coordinates": [
      -79.63059997559999,
      43.6772003174
    ]
  },
  {
    "id": "BRU",
    "name": "Brussels Airport",
    "city": "Brussels",
    "passengers": 24783911,
    "coordinates": [
      4.48443984985,
      50.901401519800004
    ]
  },
  {
    "id": "SXF",
    "name": "Berlin-Schönefeld International Airport",
    "city": "Berlin",
    "passengers": 12865315,
    "coordinates": [
      13.522500038147,
      52.380001068115
    ]
  },
  {
    "id": "FRA",
    "name": "Frankfurt am Main International Airport",
    "city": "Frankfurt",
    "passengers": 64500386,
    "coordinates": [
      8.5705556,
      50.0333333
    ]
  },
  {
    "id": "HAM",
    "name": "Hamburg Airport",
    "city": "Hamburg",
    "passengers": 17622997,
    "coordinates": [
      9.9882297515869,
      53.630401611328
    ]
  },
  {
    "id": "CGN",
    "name": "Cologne Bonn Airport",
    "city": "Cologne",
    "passengers": 12384223,
    "coordinates": [
      7.1427397728,
      50.8658981323
    ]
  },
  {
    "id": "DUS",
    "name": "Düsseldorf International Airport",
    "city": "Duesseldorf",
    "passengers": 24640564,
    "coordinates": [
      6.766779899597168,
      51.28950119018555
    ]
  },
  {
    "id": "MUC",
    "name": "Munich International Airport",
    "city": "Munich",
    "passengers": 44577241,
    "coordinates": [
      11.786100387573,
      48.353801727295
    ]
  },
  {
    "id": "STR",
    "name": "Stuttgart Airport",
    "city": "Stuttgart",
    "passengers": 10962247,
    "coordinates": [
      9.22196006775,
      48.689899444599995
    ]
  },
  {
    "id": "TXL",
    "name": "Berlin-Tegel International Airport",
    "city": "Berlin",
    "passengers": 20460688,
    "coordinates": [
      13.2876996994,
      52.5597000122
    ]
  },
  {
    "id": "HEL",
    "name": "Helsinki Vantaa Airport",
    "city": "Helsinki",
    "passengers": 18892386,
    "coordinates": [
      24.963300704956,
      60.317199707031
    ]
  },
  {
    "id": "BHX",
    "name": "Birmingham International Airport",
    "city": "Birmingham",
    "passengers": 12983436,
    "coordinates": [
      -1.74802994728,
      52.453899383499994
    ]
  },
  {
    "id": "MAN",
    "name": "Manchester Airport",
    "city": "Manchester",
    "passengers": 27901708,
    "coordinates": [
      -2.2749500274658203,
      53.35369873046875
    ]
  },
  {
    "id": "LTN",
    "name": "London Luton Airport",
    "city": "London",
    "passengers": 15799219,
    "coordinates": [
      -0.36833301186561584,
      51.874698638916016
    ]
  },
  {
    "id": "LGW",
    "name": "London Gatwick Airport",
    "city": "London",
    "passengers": 45561694,
    "coordinates": [
      -0.19027799367904663,
      51.148101806640625
    ]
  },
  {
    "id": "LHR",
    "name": "London Heathrow Airport",
    "city": "London",
    "passengers": 78014598,
    "coordinates": [
      -0.461941,
      51.4706
    ]
  },
  {
    "id": "EDI",
    "name": "Edinburgh Airport",
    "city": "Edinburgh",
    "passengers": 13432485,
    "coordinates": [
      -3.372499942779541,
      55.95000076293945
    ]
  },
  {
    "id": "STN",
    "name": "London Stansted Airport",
    "city": "London",
    "passengers": 25904573,
    "coordinates": [
      0.234999999404,
      51.8849983215
    ]
  },
  {
    "id": "AMS",
    "name": "Amsterdam Airport Schiphol",
    "city": "Amsterdam",
    "passengers": 68515425,
    "coordinates": [
      4.763889789579999,
      52.3086013794
    ]
  },
  {
    "id": "DUB",
    "name": "Dublin Airport",
    "city": "Dublin",
    "passengers": 29582321,
    "coordinates": [
      -6.2700700759887695,
      53.42129898071289
    ]
  },
  {
    "id": "CPH",
    "name": "Copenhagen Kastrup Airport",
    "city": "Copenhagen",
    "passengers": 29177833,
    "coordinates": [
      12.656000137329,
      55.617900848389
    ]
  },
  {
    "id": "OSL",
    "name": "Oslo Gardermoen Airport",
    "city": "Oslo",
    "passengers": 27482315,
    "coordinates": [
      11.100399971008,
      60.193901062012
    ]
  },
  {
    "id": "WAW",
    "name": "Warsaw Chopin Airport",
    "city": "Warsaw",
    "passengers": 15730330,
    "coordinates": [
      20.967100143399996,
      52.1656990051
    ]
  },
  {
    "id": "ARN",
    "name": "Stockholm-Arlanda Airport",
    "city": "Stockholm",
    "passengers": 26642034,
    "coordinates": [
      17.918600082397,
      59.651901245117
    ]
  },
  {
    "id": "CPT",
    "name": "Cape Town International Airport",
    "city": "Cape Town",
    "passengers": 10693063,
    "coordinates": [
      18.6016998291,
      -33.9648017883
    ]
  },
  {
    "id": "JNB",
    "name": "OR Tambo International Airport",
    "city": "Johannesburg",
    "passengers": 21180060,
    "coordinates": [
      28.246,
      -26.1392
    ]
  },
  {
    "id": "LPA",
    "name": "Gran Canaria Airport",
    "city": "Gran Canaria",
    "passengers": 13092117,
    "coordinates": [
      -15.38659954071045,
      27.931900024414062
    ]
  },
  {
    "id": "TFS",
    "name": "Tenerife South Airport",
    "city": "Tenerife",
    "passengers": 11249327,
    "coordinates": [
      -16.5725002289,
      28.044500351
    ]
  },
  {
    "id": "CAI",
    "name": "Cairo International Airport",
    "city": "Cairo",
    "passengers": 11081892,
    "coordinates": [
      31.40559959411621,
      30.12190055847168
    ]
  },
  {
    "id": "ALC",
    "name": "Alicante International Airport",
    "city": "Alicante",
    "passengers": 13713061,
    "coordinates": [
      -0.5581560134887695,
      38.28219985961914
    ]
  },
  {
    "id": "BCN",
    "name": "Barcelona International Airport",
    "city": "Barcelona",
    "passengers": 47262826,
    "coordinates": [
      2.0784599781036,
      41.297100067139
    ]
  },
  {
    "id": "MAD",
    "name": "Adolfo Suárez Madrid–Barajas Airport",
    "city": "Madrid",
    "passengers": 53386075,
    "coordinates": [
      -3.56264,
      40.471926
    ]
  },
  {
    "id": "AGP",
    "name": "Málaga Airport",
    "city": "Malaga",
    "passengers": 18628876,
    "coordinates": [
      -4.499110221862793,
      36.67490005493164
    ]
  },
  {
    "id": "LYS",
    "name": "Lyon Saint-Exupéry Airport",
    "city": "Lyon",
    "passengers": 10280192,
    "coordinates": [
      5.0811111,
      45.7255556
    ]
  },
  {
    "id": "NCE",
    "name": "Nice-Côte d'Azur Airport",
    "city": "Nice",
    "passengers": 13304782,
    "coordinates": [
      7.215869903560001,
      43.6584014893
    ]
  },
  {
    "id": "CDG",
    "name": "Charles de Gaulle International Airport",
    "city": "Paris",
    "passengers": 69471442,
    "coordinates": [
      2.54999995232,
      49.0127983093
    ]
  },
  {
    "id": "BUD",
    "name": "Budapest Ferenc Liszt International Airport",
    "city": "Budapest",
    "passengers": 13097239,
    "coordinates": [
      19.255599975599996,
      47.436901092499994
    ]
  },
  {
    "id": "MXP",
    "name": "Malpensa International Airport",
    "city": "Milano",
    "passengers": 22169167,
    "coordinates": [
      8.72811,
      45.6306
    ]
  },
  {
    "id": "BGY",
    "name": "Il Caravaggio International Airport",
    "city": "Bergamo",
    "passengers": 12336137,
    "coordinates": [
      9.70417,
      45.673901
    ]
  },
  {
    "id": "VCE",
    "name": "Venice Marco Polo Airport",
    "city": "Venice",
    "passengers": 10371380,
    "coordinates": [
      12.3519,
      45.505299
    ]
  },
  {
    "id": "FCO",
    "name": "Leonardo da Vinci–Fiumicino Airport",
    "city": "Rome",
    "passengers": 40968756,
    "coordinates": [
      12.2388889,
      41.8002778
    ]
  },
  {
    "id": "PRG",
    "name": "Václav Havel Airport Prague",
    "city": "Prague",
    "passengers": 15415001,
    "coordinates": [
      14.26,
      50.1008
    ]
  },
  {
    "id": "TLV",
    "name": "Ben Gurion International Airport",
    "city": "Tel-aviv",
    "passengers": 20781226,
    "coordinates": [
      34.88669967651367,
      32.01139831542969
    ]
  },
  {
    "id": "VIE",
    "name": "Vienna International Airport",
    "city": "Vienna",
    "passengers": 24392805,
    "coordinates": [
      16.569700241089,
      48.110298156738
    ]
  },
  {
    "id": "OPO",
    "name": "Francisco de Sá Carneiro Airport",
    "city": "Porto",
    "passengers": 10787000,
    "coordinates": [
      -8.68138980865,
      41.2481002808
    ]
  },
  {
    "id": "LIS",
    "name": "Lisbon Portela Airport",
    "city": "Lisbon",
    "passengers": 26669755,
    "coordinates": [
      -9.13591957092,
      38.7812995911
    ]
  },
  {
    "id": "OTP",
    "name": "Henri Coandă International Airport",
    "city": "Bucharest",
    "passengers": 12804191,
    "coordinates": [
      26.085,
      44.5711111
    ]
  },
  {
    "id": "GVA",
    "name": "Geneva Cointrin International Airport",
    "city": "Geneva",
    "passengers": 17351816,
    "coordinates": [
      6.108950138092041,
      46.23809814453125
    ]
  },
  {
    "id": "ZRH",
    "name": "Zürich Airport",
    "city": "Zurich",
    "passengers": 29396094,
    "coordinates": [
      8.5491695404053,
      47.464698791504
    ]
  },
  {
    "id": "ESB",
    "name": "Esenboğa International Airport",
    "city": "Ankara",
    "passengers": 15845878,
    "coordinates": [
      32.995098114,
      40.128101348899996
    ]
  },
  {
    "id": "AYT",
    "name": "Antalya International Airport",
    "city": "Antalya",
    "passengers": 25931659,
    "coordinates": [
      30.800501,
      36.898701
    ]
  },
  {
    "id": "IST",
    "name": "Atatürk International Airport",
    "city": "Istanbul",
    "passengers": 63859785,
    "coordinates": [
      28.814599990799998,
      40.9768981934
    ]
  },
  {
    "id": "ADB",
    "name": "Adnan Menderes International Airport",
    "city": "Izmir",
    "passengers": 12823701,
    "coordinates": [
      27.156999588,
      38.2924003601
    ]
  },
  {
    "id": "GDL",
    "name": "Don Miguel Hidalgo Y Costilla International Airport",
    "city": "Guadalajara",
    "passengers": 12808000,
    "coordinates": [
      -103.31099700927734,
      20.521799087524414
    ]
  },
  {
    "id": "MEX",
    "name": "Licenciado Benito Juarez International Airport",
    "city": "Mexico City",
    "passengers": 44732418,
    "coordinates": [
      -99.072098,
      19.4363
    ]
  },
  {
    "id": "CUN",
    "name": "Cancún International Airport",
    "city": "Cancun",
    "passengers": 23601509,
    "coordinates": [
      -86.8770980835,
      21.036500930800003
    ]
  },
  {
    "id": "PTY",
    "name": "Tocumen International Airport",
    "city": "Panama City",
    "passengers": 15616065,
    "coordinates": [
      -79.3834991455,
      9.0713596344
    ]
  },
  {
    "id": "AKL",
    "name": "Auckland International Airport",
    "city": "Auckland",
    "passengers": 19020573,
    "coordinates": [
      174.792007446,
      -37.008098602299995
    ]
  },
  {
    "id": "JED",
    "name": "King Abdulaziz International Airport",
    "city": "Jeddah",
    "passengers": 33917282,
    "coordinates": [
      39.156502,
      21.6796
    ]
  },
  {
    "id": "RUH",
    "name": "King Khaled International Airport",
    "city": "Riyadh",
    "passengers": 25038000,
    "coordinates": [
      46.69879913330078,
      24.957599639892578
    ]
  },
  {
    "id": "THR",
    "name": "Mehrabad International Airport",
    "city": "Teheran",
    "passengers": 17464216,
    "coordinates": [
      51.31340026855469,
      35.68920135498047
    ]
  },
  {
    "id": "AUH",
    "name": "Abu Dhabi International Airport",
    "city": "Abu Dhabi",
    "passengers": 23760561,
    "coordinates": [
      54.651100158691406,
      24.433000564575195
    ]
  },
  {
    "id": "DXB",
    "name": "Dubai International Airport",
    "city": "Dubai",
    "passengers": 88242099,
    "coordinates": [
      55.3643989563,
      25.2527999878
    ]
  },
  {
    "id": "SHJ",
    "name": "Sharjah International Airport",
    "city": "Sharjah",
    "passengers": 11360000,
    "coordinates": [
      55.5172004699707,
      25.32859992980957
    ]
  },
  {
    "id": "TPE",
    "name": "Taiwan Taoyuan International Airport",
    "city": "Taipei",
    "passengers": 44878703,
    "coordinates": [
      121.233002,
      25.0777
    ]
  },
  {
    "id": "NRT",
    "name": "Narita International Airport",
    "city": "Tokyo",
    "passengers": 40631193,
    "coordinates": [
      140.386001587,
      35.7647018433
    ]
  },
  {
    "id": "CTS",
    "name": "New Chitose Airport",
    "city": "Sapporo",
    "passengers": 22916914,
    "coordinates": [
      141.69200134277344,
      42.77519989013672
    ]
  },
  {
    "id": "FUK",
    "name": "Fukuoka Airport",
    "city": "Fukuoka",
    "passengers": 23484678,
    "coordinates": [
      130.4510040283203,
      33.585899353027344
    ]
  },
  {
    "id": "ITM",
    "name": "Osaka International Airport",
    "city": "Osaka",
    "passengers": 14541936,
    "coordinates": [
      135.43800354003906,
      34.785499572753906
    ]
  },
  {
    "id": "HND",
    "name": "Tokyo Haneda International Airport",
    "city": "Tokyo",
    "passengers": 76476251,
    "coordinates": [
      139.779999,
      35.552299
    ]
  },
  {
    "id": "CJU",
    "name": "Jeju International Airport",
    "city": "Cheju",
    "passengers": 29846712,
    "coordinates": [
      126.49299621582031,
      33.51129913330078
    ]
  },
  {
    "id": "PUS",
    "name": "Gimhae International Airport",
    "city": "Busan",
    "passengers": 16403541,
    "coordinates": [
      128.93800354,
      35.1795005798
    ]
  },
  {
    "id": "GMP",
    "name": "Gimpo International Airport",
    "city": "Seoul",
    "passengers": 25267408,
    "coordinates": [
      126.791000366,
      37.5583000183
    ]
  },
  {
    "id": "OKA",
    "name": "Naha Airport",
    "city": "Okinawa",
    "passengers": 20569935,
    "coordinates": [
      127.646003723,
      26.1958007812
    ]
  },
  {
    "id": "MNL",
    "name": "Ninoy Aquino International Airport",
    "city": "Manila",
    "passengers": 42022484,
    "coordinates": [
      121.019997,
      14.5086
    ]
  },
  {
    "id": "AEP",
    "name": "Jorge Newbery Airpark",
    "city": "Buenos Aires",
    "passengers": 13797710,
    "coordinates": [
      -58.4156,
      -34.5592
    ]
  },
  {
    "id": "BSB",
    "name": "Presidente Juscelino Kubistschek International Airport",
    "city": "Brasilia",
    "passengers": 16912680,
    "coordinates": [
      -47.920833587646484,
      -15.86916732788086
    ]
  },
  {
    "id": "CNF",
    "name": "Tancredo Neves International Airport",
    "city": "Belo Horizonte",
    "passengers": 10164077,
    "coordinates": [
      -43.97194290161133,
      -19.62444305419922
    ]
  },
  {
    "id": "GIG",
    "name": "Rio Galeão – Tom Jobim International Airport",
    "city": "Rio De Janeiro",
    "passengers": 16243253,
    "coordinates": [
      -43.2505569458,
      -22.8099994659
    ]
  },
  {
    "id": "GRU",
    "name": "Guarulhos - Governador André Franco Montoro International Airport",
    "city": "Sao Paulo",
    "passengers": 37774000,
    "coordinates": [
      -46.47305679321289,
      -23.435556411743164
    ]
  },
  {
    "id": "CGH",
    "name": "Congonhas Airport",
    "city": "Sao Paulo",
    "passengers": 21859453,
    "coordinates": [
      -46.65638732910156,
      -23.626110076904297
    ]
  },
  {
    "id": "SCL",
    "name": "Comodoro Arturo Merino Benítez International Airport",
    "city": "Santiago",
    "passengers": 22316093,
    "coordinates": [
      -70.78579711914062,
      -33.393001556396484
    ]
  },
  {
    "id": "BOG",
    "name": "El Dorado International Airport",
    "city": "Bogota",
    "passengers": 30989932,
    "coordinates": [
      -74.1469,
      4.70159
    ]
  },
  {
    "id": "LIM",
    "name": "Jorge Chávez International Airport",
    "city": "Lima",
    "passengers": 22046042,
    "coordinates": [
      -77.114304,
      -12.0219
    ]
  },
  {
    "id": "KBP",
    "name": "Boryspil International Airport",
    "city": "Kiev",
    "passengers": 10554757,
    "coordinates": [
      30.894699096679688,
      50.345001220703125
    ]
  },
  {
    "id": "LED",
    "name": "Pulkovo Airport",
    "city": "St. Petersburg",
    "passengers": 16125520,
    "coordinates": [
      30.262500762939453,
      59.80030059814453
    ]
  },
  {
    "id": "SVO",
    "name": "Sheremetyevo International Airport",
    "city": "Moscow",
    "passengers": 40092806,
    "coordinates": [
      37.4146,
      55.972599
    ]
  },
  {
    "id": "VKO",
    "name": "Vnukovo International Airport",
    "city": "Moscow",
    "passengers": 18139000,
    "coordinates": [
      37.2615013123,
      55.5914993286
    ]
  },
  {
    "id": "BOM",
    "name": "Chhatrapati Shivaji International Airport",
    "city": "Mumbai",
    "passengers": 47204259,
    "coordinates": [
      72.8678970337,
      19.0886993408
    ]
  },
  {
    "id": "CCU",
    "name": "Netaji Subhash Chandra Bose International Airport",
    "city": "Kolkata",
    "passengers": 20167698,
    "coordinates": [
      88.44670104980469,
      22.654699325561523
    ]
  },
  {
    "id": "HKG",
    "name": "Chek Lap Kok International Airport",
    "city": "Hong Kong",
    "passengers": 72665078,
    "coordinates": [
      113.915000916,
      22.3089008331
    ]
  },
  {
    "id": "DEL",
    "name": "Indira Gandhi International Airport",
    "city": "Delhi",
    "passengers": 63451503,
    "coordinates": [
      77.10310363769531,
      28.566499710083008
    ]
  },
  {
    "id": "BLR",
    "name": "Kempegowda International Airport",
    "city": "Bangalore",
    "passengers": 25047272,
    "coordinates": [
      77.706299,
      13.1979
    ]
  },
  {
    "id": "COK",
    "name": "Cochin International Airport",
    "city": "Kochi",
    "passengers": 10274598,
    "coordinates": [
      76.40190124510002,
      10.1520004272
    ]
  },
  {
    "id": "MAA",
    "name": "Chennai International Airport",
    "city": "Madras",
    "passengers": 19599438,
    "coordinates": [
      80.16929626464844,
      12.990005493164062
    ]
  },
  {
    "id": "DMK",
    "name": "Don Mueang International Airport",
    "city": "Bangkok",
    "passengers": 38299757,
    "coordinates": [
      100.607002258,
      13.9125995636
    ]
  },
  {
    "id": "HKT",
    "name": "Phuket International Airport",
    "city": "Phuket",
    "passengers": 16855637,
    "coordinates": [
      98.3169021606,
      8.11320018768
    ]
  },
  {
    "id": "DAD",
    "name": "Da Nang International Airport",
    "city": "Danang",
    "passengers": 10860235,
    "coordinates": [
      108.1989974975586,
      16.043899536132812
    ]
  },
  {
    "id": "HAN",
    "name": "Noi Bai International Airport",
    "city": "Hanoi",
    "passengers": 23068227,
    "coordinates": [
      105.80699920654297,
      21.221200942993164
    ]
  },
  {
    "id": "SGN",
    "name": "Tan Son Nhat International Airport",
    "city": "Ho Chi Minh City",
    "passengers": 35900000,
    "coordinates": [
      106.652000427,
      10.8187999725
    ]
  },
  {
    "id": "UPG",
    "name": "Hasanuddin International Airport",
    "city": "Ujung Pandang",
    "passengers": 11653387,
    "coordinates": [
      119.55400085449219,
      -5.061629772186279
    ]
  },
  {
    "id": "CGK",
    "name": "Soekarno-Hatta International Airport",
    "city": "Jakarta",
    "passengers": 63015620,
    "coordinates": [
      106.65599823,
      -6.1255698204
    ]
  },
  {
    "id": "KUL",
    "name": "Kuala Lumpur International Airport",
    "city": "Kuala Lumpur",
    "passengers": 58558440,
    "coordinates": [
      101.70999908447,
      2.745579957962
    ]
  },
  {
    "id": "SIN",
    "name": "Singapore Changi Airport",
    "city": "Singapore",
    "passengers": 62219573,
    "coordinates": [
      103.994003,
      1.35019
    ]
  },
  {
    "id": "BNE",
    "name": "Brisbane International Airport",
    "city": "Brisbane",
    "passengers": 23205702,
    "coordinates": [
      153.11700439453125,
      -27.384199142456055
    ]
  },
  {
    "id": "MEL",
    "name": "Melbourne International Airport",
    "city": "Melbourne",
    "passengers": 33704854,
    "coordinates": [
      144.84300231933594,
      -37.673301696777344
    ]
  },
  {
    "id": "PER",
    "name": "Perth International Airport",
    "city": "Perth",
    "passengers": 13759170,
    "coordinates": [
      115.96700286865234,
      -31.94029998779297
    ]
  },
  {
    "id": "SYD",
    "name": "Sydney Kingsford Smith International Airport",
    "city": "Sydney",
    "passengers": 43410355,
    "coordinates": [
      151.177001953125,
      -33.94609832763672
    ]
  },
  {
    "id": "PEK",
    "name": "Beijing Capital International Airport",
    "city": "Beijing",
    "passengers": 95786442,
    "coordinates": [
      116.58499908447266,
      40.080101013183594
    ]
  },
  {
    "id": "TSN",
    "name": "Tianjin Binhai International Airport",
    "city": "Tianjin",
    "passengers": 20711697,
    "coordinates": [
      117.346000671,
      39.124401092499994
    ]
  },
  {
    "id": "TYN",
    "name": "Taiyuan Wusu Airport",
    "city": "Taiyuan",
    "passengers": 12980259,
    "coordinates": [
      112.62799835205078,
      37.74689865112305
    ]
  },
  {
    "id": "CAN",
    "name": "Guangzhou Baiyun International Airport",
    "city": "Guangzhou",
    "passengers": 65887473,
    "coordinates": [
      113.29900360107422,
      23.39240074157715
    ]
  },
  {
    "id": "CSX",
    "name": "Changsha Huanghua International Airport",
    "city": "Changcha",
    "passengers": 23764820,
    "coordinates": [
      113.220001221,
      28.189199447599997
    ]
  },
  {
    "id": "NNG",
    "name": "Nanning Wuxu Airport",
    "city": "Nanning",
    "passengers": 13915542,
    "coordinates": [
      108.1719970703125,
      22.608299255371094
    ]
  },
  {
    "id": "SZX",
    "name": "Shenzhen Bao'an International Airport",
    "city": "Shenzhen",
    "passengers": 45558409,
    "coordinates": [
      113.81099700927734,
      22.639299392700195
    ]
  },
  {
    "id": "CGO",
    "name": "Zhengzhou Xinzheng International Airport",
    "city": "Zhengzhou",
    "passengers": 24299073,
    "coordinates": [
      113.841003418,
      34.519699096699995
    ]
  },
  {
    "id": "WUH",
    "name": "Wuhan Tianhe International Airport",
    "city": "Wuhan",
    "passengers": 23129400,
    "coordinates": [
      114.20800018310547,
      30.78380012512207
    ]
  },
  {
    "id": "LHW",
    "name": "Lanzhou Zhongchuan Airport",
    "city": "Lanzhou",
    "passengers": 12816443,
    "coordinates": [
      103.620002747,
      36.5152015686
    ]
  },
  {
    "id": "XIY",
    "name": "Xi'an Xianyang International Airport",
    "city": "Xi'an",
    "passengers": 41857406,
    "coordinates": [
      108.75199890136719,
      34.44710159301758
    ]
  },
  {
    "id": "KMG",
    "name": "Kunming Changshui International Airport",
    "city": "Kunming",
    "passengers": 44729736,
    "coordinates": [
      102.9291667,
      25.1019444
    ]
  },
  {
    "id": "XMN",
    "name": "Xiamen Gaoqi International Airport",
    "city": "Xiamen",
    "passengers": 24485239,
    "coordinates": [
      118.12799835205078,
      24.54400062561035
    ]
  },
  {
    "id": "KHN",
    "name": "Nanchang Changbei International Airport",
    "city": "Nanchang",
    "passengers": 11212161,
    "coordinates": [
      115.9000015258789,
      28.864999771118164
    ]
  },
  {
    "id": "FOC",
    "name": "Fuzhou Changle International Airport",
    "city": "Fuzhou",
    "passengers": 12469235,
    "coordinates": [
      119.66300201416016,
      25.935100555419922
    ]
  },
  {
    "id": "HGH",
    "name": "Hangzhou Xiaoshan International Airport",
    "city": "Hangzhou",
    "passengers": 35570411,
    "coordinates": [
      120.43399810791016,
      30.22949981689453
    ]
  },
  {
    "id": "NKG",
    "name": "Nanjing Lukou Airport",
    "city": "Nanjing",
    "passengers": 25822936,
    "coordinates": [
      118.86199951171875,
      31.742000579833984
    ]
  },
  {
    "id": "TAO",
    "name": "Liuting Airport",
    "city": "Qingdao",
    "passengers": 23210530,
    "coordinates": [
      120.374000549,
      36.2661018372
    ]
  },
  {
    "id": "SHA",
    "name": "Shanghai Hongqiao International Airport",
    "city": "Shanghai",
    "passengers": 41884059,
    "coordinates": [
      121.33599853515625,
      31.197900772094727
    ]
  },
  {
    "id": "CKG",
    "name": "Chongqing Jiangbei International Airport",
    "city": "Chongqing",
    "passengers": 38715210,
    "coordinates": [
      106.64199829101562,
      29.719200134277344
    ]
  },
  {
    "id": "KWE",
    "name": "Longdongbao Airport",
    "city": "Guiyang",
    "passengers": 18109610,
    "coordinates": [
      106.8010025024414,
      26.53849983215332
    ]
  },
  {
    "id": "CTU",
    "name": "Chengdu Shuangliu International Airport",
    "city": "Chengdu",
    "passengers": 49801693,
    "coordinates": [
      103.9469985961914,
      30.578500747680664
    ]
  },
  {
    "id": "URC",
    "name": "Ürümqi Diwopu International Airport",
    "city": "Urumqi",
    "passengers": 21500901,
    "coordinates": [
      87.47419738769531,
      43.907100677490234
    ]
  },
  {
    "id": "HRB",
    "name": "Taiping Airport",
    "city": "Harbin",
    "passengers": 18810317,
    "coordinates": [
      126.25,
      45.6234016418457
    ]
  },
  {
    "id": "DLC",
    "name": "Zhoushuizi Airport",
    "city": "Dalian",
    "passengers": 17503810,
    "coordinates": [
      121.53900146484375,
      38.9656982421875
    ]
  },
  {
    "id": "PVG",
    "name": "Shanghai Pudong International Airport",
    "city": "Shanghai",
    "passengers": 70001237,
    "coordinates": [
      121.80500030517578,
      31.143400192260742
    ]
  },
  {
    "id": "ORL",
    "name": "Orlando Executive Airport",
    "city": "Orlando",
    "passengers": 32042475,
    "coordinates": [
      -81.332901000977,
      28.545499801636
    ]
  },
  {
    "id": "BOS",
    "name": "General Edward Lawrence Logan International Airport",
    "city": "Boston",
    "passengers": 36288042,
    "coordinates": [
      -71.00520325,
      42.36429977
    ]
  },
  {
    "id": "OAK",
    "name": "Metropolitan Oakland International Airport",
    "city": "Oakland",
    "passengers": 13072245,
    "coordinates": [
      -122.22100067138672,
      37.72129821777344
    ]
  },
  {
    "id": "MCI",
    "name": "Kansas City International Airport",
    "city": "Kansas City",
    "passengers": 11503936,
    "coordinates": [
      -94.713898,
      39.2976
    ]
  },
  {
    "id": "PHX",
    "name": "Phoenix Sky Harbor International Airport",
    "city": "Phoenix",
    "passengers": 43921670,
    "coordinates": [
      -112.01200103759766,
      33.43429946899414
    ]
  },
  {
    "id": "SFO",
    "name": "San Francisco International Airport",
    "city": "San Francisco",
    "passengers": 55822129,
    "coordinates": [
      -122.375,
      37.61899948120117
    ]
  },
  {
    "id": "LAX",
    "name": "Los Angeles International Airport",
    "city": "Los Angeles",
    "passengers": 84557968,
    "coordinates": [
      -118.4079971,
      33.94250107
    ]
  },
  {
    "id": "EWR",
    "name": "Newark Liberty International Airport",
    "city": "Newark",
    "passengers": 43393499,
    "coordinates": [
      -74.168701171875,
      40.692501068115234
    ]
  },
  {
    "id": "DAL",
    "name": "Dallas Love Field",
    "city": "Dallas",
    "passengers": 15562738,
    "coordinates": [
      -96.85179901123047,
      32.84709930419922
    ]
  },
  {
    "id": "DCA",
    "name": "Ronald Reagan Washington National Airport",
    "city": "Washington",
    "passengers": 23928248,
    "coordinates": [
      -77.037697,
      38.8521
    ]
  },
  {
    "id": "FLL",
    "name": "Fort Lauderdale Hollywood International Airport",
    "city": "Fort Lauderdale",
    "passengers": 32511053,
    "coordinates": [
      -80.15270233154297,
      26.072599411010742
    ]
  },
  {
    "id": "SLC",
    "name": "Salt Lake City International Airport",
    "city": "Salt Lake City",
    "passengers": 24198816,
    "coordinates": [
      -111.97799682617188,
      40.78839874267578
    ]
  },
  {
    "id": "IAH",
    "name": "George Bush Intercontinental Houston Airport",
    "city": "Houston",
    "passengers": 40696189,
    "coordinates": [
      -95.34140014648438,
      29.984399795532227
    ]
  },
  {
    "id": "HOU",
    "name": "William P Hobby Airport",
    "city": "Houston",
    "passengers": 13435672,
    "coordinates": [
      -95.27890015,
      29.64539909
    ]
  },
  {
    "id": "MIA",
    "name": "Miami International Airport",
    "city": "Miami",
    "passengers": 44071313,
    "coordinates": [
      -80.29060363769531,
      25.79319953918457
    ]
  },
  {
    "id": "SEA",
    "name": "Seattle Tacoma International Airport",
    "city": "Seattle",
    "passengers": 46934194,
    "coordinates": [
      -122.30899810791016,
      47.44900131225586
    ]
  },
  {
    "id": "RDU",
    "name": "Raleigh Durham International Airport",
    "city": "Raleigh-durham",
    "passengers": 11653086,
    "coordinates": [
      -78.7874984741211,
      35.877601623535156
    ]
  },
  {
    "id": "DTW",
    "name": "Detroit Metropolitan Wayne County Airport",
    "city": "Detroit",
    "passengers": 34701497,
    "coordinates": [
      -83.35340118408203,
      42.212398529052734
    ]
  },
  {
    "id": "TPA",
    "name": "Tampa International Airport",
    "city": "Tampa",
    "passengers": 19624284,
    "coordinates": [
      -82.533203125,
      27.975500106811523
    ]
  },
  {
    "id": "DFW",
    "name": "Dallas Fort Worth International Airport",
    "city": "Dallas-Fort Worth",
    "passengers": 67092194,
    "coordinates": [
      -97.03800201416016,
      32.89680099487305
    ]
  },
  {
    "id": "AUS",
    "name": "Austin Bergstrom International Airport",
    "city": "Austin",
    "passengers": 13889305,
    "coordinates": [
      -97.6698989868164,
      30.194499969482422
    ]
  },
  {
    "id": "STL",
    "name": "Lambert St Louis International Airport",
    "city": "St. Louis",
    "passengers": 14730656,
    "coordinates": [
      -90.37000274658203,
      38.74869918823242
    ]
  },
  {
    "id": "ATL",
    "name": "Hartsfield Jackson Atlanta International Airport",
    "city": "Atlanta",
    "passengers": 103902992,
    "coordinates": [
      -84.4281005859375,
      33.63669967651367
    ]
  },
  {
    "id": "BNA",
    "name": "Nashville International Airport",
    "city": "Nashville",
    "passengers": 14134448,
    "coordinates": [
      -86.6781997680664,
      36.1245002746582
    ]
  },
  {
    "id": "LGA",
    "name": "La Guardia Airport",
    "city": "New York",
    "passengers": 29786769,
    "coordinates": [
      -73.87259674,
      40.77719879
    ]
  },
  {
    "id": "IAD",
    "name": "Washington Dulles International Airport",
    "city": "Washington",
    "passengers": 22892504,
    "coordinates": [
      -77.45580292,
      38.94449997
    ]
  },
  {
    "id": "PDX",
    "name": "Portland International Airport",
    "city": "Portland",
    "passengers": 19080454,
    "coordinates": [
      -122.5979996,
      45.58869934
    ]
  },
  {
    "id": "HNL",
    "name": "Honolulu International Airport",
    "city": "Honolulu",
    "passengers": 19950125,
    "coordinates": [
      -157.9219970703125,
      21.318700790405273
    ]
  },
  {
    "id": "SAN",
    "name": "San Diego International Airport",
    "city": "San Diego",
    "passengers": 22173493,
    "coordinates": [
      -117.190002441,
      32.7336006165
    ]
  },
  {
    "id": "MDW",
    "name": "Chicago Midway International Airport",
    "city": "Chicago",
    "passengers": 22460236,
    "coordinates": [
      -87.75240325927734,
      41.7859992980957
    ]
  },
  {
    "id": "SJC",
    "name": "Norman Y. Mineta San Jose International Airport",
    "city": "San Jose",
    "passengers": 12480232,
    "coordinates": [
      -121.92900085449219,
      37.36259841918945
    ]
  },
  {
    "id": "DEN",
    "name": "Denver International Airport",
    "city": "Denver",
    "passengers": 61379396,
    "coordinates": [
      -104.672996521,
      39.861698150635
    ]
  },
  {
    "id": "PHL",
    "name": "Philadelphia International Airport",
    "city": "Philadelphia",
    "passengers": 29585754,
    "coordinates": [
      -75.24109649658203,
      39.87189865112305
    ]
  },
  {
    "id": "JFK",
    "name": "John F Kennedy International Airport",
    "city": "New York",
    "passengers": 59392500,
    "coordinates": [
      -73.77890015,
      40.63980103
    ]
  },
  {
    "id": "SMF",
    "name": "Sacramento International Airport",
    "city": "Sacramento",
    "passengers": 10912097,
    "coordinates": [
      -121.59100341796875,
      38.69540023803711
    ]
  },
  {
    "id": "ORD",
    "name": "Chicago O'Hare International Airport",
    "city": "Chicago",
    "passengers": 79828183,
    "coordinates": [
      -87.90480042,
      41.97859955
    ]
  },
  {
    "id": "BWI",
    "name": "Baltimore/Washington International Thurgood Marshall Airport",
    "city": "Baltimore",
    "passengers": 26369411,
    "coordinates": [
      -76.66829681,
      39.17539978
    ]
  },
  {
    "id": "MSP",
    "name": "Minneapolis-St Paul International/Wold-Chamberlain Airport",
    "city": "Minneapolis",
    "passengers": 38034341,
    "coordinates": [
      -93.22180175780001,
      44.881999969499994
    ]
  },
  {
    "id": "MSY",
    "name": "Louis Armstrong New Orleans International Airport",
    "city": "New Orleans",
    "passengers": 12009512,
    "coordinates": [
      -90.25800323486328,
      29.99340057373047
    ]
  },
  {
    "id": "SNA",
    "name": "John Wayne Airport-Orange County Airport",
    "city": "Santa Ana",
    "passengers": 10423578,
    "coordinates": [
      -117.8679962,
      33.67570114
    ]
  },
  {
    "id": "CLT",
    "name": "Charlotte Douglas International Airport",
    "city": "Charlotte",
    "passengers": 45909899,
    "coordinates": [
      -80.94309997558594,
      35.2140007019043
    ]
  },
  {
    "id": "LAS",
    "name": "McCarran International Airport",
    "city": "Las Vegas",
    "passengers": 48566803,
    "coordinates": [
      -115.1520004,
      36.08010101
    ]
  },
  {
    "id": "MCO",
    "name": "Orlando International Airport",
    "city": "Orlando",
    "passengers": 44511265,
    "coordinates": [
      -81.30899810791016,
      28.429399490356445
    ]
  },
  {
    "id": "BKK",
    "name": "Suvarnabhumi Airport",
    "city": "Bangkok",
    "passengers": 60860557,
    "coordinates": [
      100.74700164794922,
      13.681099891662598
    ]
  },
  {
    "id": "SUB",
    "name": "Juanda International Airport",
    "city": "Surabaya",
    "passengers": 21882335,
    "coordinates": [
      112.78700256347656,
      -7.3798298835754395
    ]
  },
  {
    "id": "ICN",
    "name": "Incheon International Airport",
    "city": "Seoul",
    "passengers": 62157834,
    "coordinates": [
      126.45099639892578,
      37.46910095214844
    ]
  },
  {
    "id": "CNX",
    "name": "Chiang Mai International Airport",
    "city": "Chiang Mai",
    "passengers": 10230070,
    "coordinates": [
      98.962600708,
      18.766799926799997
    ]
  },
  {
    "id": "DPS",
    "name": "Ngurah Rai (Bali) International Airport",
    "city": "Denpasar",
    "passengers": 22863647,
    "coordinates": [
      115.16699981689,
      -8.7481698989868
    ]
  },
  {
    "id": "ATH",
    "name": "Eleftherios Venizelos International Airport",
    "city": "Athens",
    "passengers": 21737787,
    "coordinates": [
      23.9444999695,
      37.9364013672
    ]
  },
  {
    "id": "NGO",
    "name": "Chubu Centrair International Airport",
    "city": "Nagoya",
    "passengers": 10177713,
    "coordinates": [
      136.80499267578125,
      34.8583984375
    ]
  },
  {
    "id": "EZE",
    "name": "Ministro Pistarini International Airport",
    "city": "Buenos Aires",
    "passengers": 10327203,
    "coordinates": [
      -58.5358,
      -34.8222
    ]
  },
  {
    "id": "KIX",
    "name": "Kansai International Airport",
    "city": "Osaka",
    "passengers": 27983093,
    "coordinates": [
      135.24400329589844,
      34.42729949951172
    ]
  },
  {
    "id": "PMI",
    "name": "Palma De Mallorca Airport",
    "city": "Palma de Mallorca",
    "passengers": 27970655,
    "coordinates": [
      2.73881006241,
      39.551700592
    ]
  },
  {
    "id": "DME",
    "name": "Domodedovo International Airport",
    "city": "Moscow",
    "passengers": 30700000,
    "coordinates": [
      37.90629959106445,
      55.40879821777344
    ]
  },
  {
    "id": "SYX",
    "name": "Sanya Phoenix International Airport",
    "city": "Sanya",
    "passengers": 21005001,
    "coordinates": [
      109.41200256347656,
      18.302900314331055
    ]
  },
  {
    "id": "TNA",
    "name": "Yaoqiang Airport",
    "city": "Jinan",
    "passengers": 14319264,
    "coordinates": [
      117.21600341796875,
      36.857200622558594
    ]
  },
  {
    "id": "HAK",
    "name": "Haikou Meilan International Airport",
    "city": "Haikou",
    "passengers": 22584815,
    "coordinates": [
      110.45899963378906,
      19.934900283813477
    ]
  },
  {
    "id": "SHE",
    "name": "Taoxian Airport",
    "city": "Shenyang",
    "passengers": 17342626,
    "coordinates": [
      123.48300170898438,
      41.639801025390625
    ]
  },
  {
    "id": "CEB",
    "name": "Mactan Cebu International Airport",
    "city": "Cebu",
    "passengers": 10050940,
    "coordinates": [
      123.97899627686,
      10.307499885559
    ]
  },
  {
    "id": "SAW",
    "name": "Sabiha Gökçen International Airport",
    "city": "Istanbul",
    "passengers": 31385841,
    "coordinates": [
      29.3092002869,
      40.898601532
    ]
  },
  {
    "id": "MHD",
    "name": "Mashhad International Airport",
    "city": "Mashhad",
    "passengers": 10459377,
    "coordinates": [
      59.64099884033203,
      36.235198974609375
    ]
  },
  {
    "id": "CGQ",
    "name": "Longjia Airport",
    "city": "Changchun",
    "passengers": 11662943,
    "coordinates": [
      125.684997559,
      43.9962005615
    ]
  },
  {
    "id": "HET",
    "name": "Baita International Airport",
    "city": "Hohhot",
    "passengers": 10969050,
    "coordinates": [
      111.823997498,
      40.851398468
    ]
  },
  {
    "id": "SJW",
    "name": "Shijiazhuang Daguocun International Airport",
    "city": "Shijiazhuang",
    "passengers": 10528364,
    "coordinates": [
      114.6969985961914,
      38.28070068359375
    ]
  },
  {
    "id": "KNO",
    "name": "Kualanamu International Airport",
    "city": "Medan",
    "passengers": 12245116,
    "coordinates": [
      98.885278,
      3.642222
    ]
  }
]